{"type":"FeatureCollection","features":[{"type":"Feature","properties":{"id":"B0","name":"UW Digestive Health Center","address":"750 University Row Madison, WI 53705"},"geometry":{"type":"Point","coordinates":[-89.4694567,43.0768656]}},{"type":"Feature","properties":{"id":"B1","name":"Hilldale North","address":"26 N. Midvale Blvd. Madison, WI 53705"},"geometry":{"type":"Point","coordinates":[-89.4515777,43.066626]}},{"type":"Feature","properties":{"id":"B2","name":"UW Credit Union","address":"3750 University Ave. Madison, WI 53705"},"geometry":{"type":"Point","coordinates":[-89.451246,43.076529]}},{"type":"Feature","properties":{"id":"B3","name":"University Station Clinic","address":"2880 University Ave. Madison, WI 53705"},"geometry":{"type":"Point","coordinates":[-89.4381731,43.07687670000001]}},{"type":"Feature","properties":{"id":"B4","name":"UW Children's Hospital","address":"900 University Bay Dr. Madison, WI 53705"},"geometry":{"type":"Point","coordinates":[-89.4355779,43.0755345]}},{"type":"Feature","properties":{"id":"B5","name":"Observatory Dr. @ UW Hospital","address":"[FIND]Observatory Dr. @ UW Hospital Madison, WI 53792"},"geometry":{"type":"Point","coordinates":[-89.43097279999999,43.0765725]}},{"type":"Feature","properties":{"id":"B6","name":"Observatory Dr. @ Natatorium Gym","address":"[FIND]Observatory Dr. @ Natatorium Gym Madison, WI 53706"},"geometry":{"type":"Point","coordinates":[-89.42017279999999,43.0770817]}},{"type":"Feature","properties":{"id":"B7","name":"Monroe & Harrison","address":"797 Harrison St. Madison, WI 53711"},"geometry":{"type":"Point","coordinates":[-89.41755979999999,43.0646685]}},{"type":"Feature","properties":{"id":"B8","name":"Union South","address":"Union South Madison, WI 53703"},"geometry":{"type":"Point","coordinates":[-89.40783259999999,43.0717877]}},{"type":"Feature","properties":{"id":"B9","name":"University St. & Charter St.","address":"University St. & Charter St. Madison, WI 53706"},"geometry":{"type":"Point","coordinates":[-89.40498009999999,43.0744178]}},{"type":"Feature","properties":{"id":"B10","name":"N. Park & Spring St.","address":"N. Park & Spring St. Madison, WI 53715"},"geometry":{"type":"Point","coordinates":[-89.4049,43.069585]}},{"type":"Feature","properties":{"id":"B11","name":"Library Mall","address":"511 N. Park St. Madison, WI 53706"},"geometry":{"type":"Point","coordinates":[-89.40061659999999,43.0750553]}},{"type":"Feature","properties":{"id":"B12","name":"Memorial Union","address":"699 N. Park St. Madison, WI 53706"},"geometry":{"type":"Point","coordinates":[-89.4006825,43.0769981]}},{"type":"Feature","properties":{"id":"B13","name":"Langdon St. & N. Lake St.","address":"633 Langdon Street Madison, WI 53703"},"geometry":{"type":"Point","coordinates":[-89.3968051,43.0756549]}},{"type":"Feature","properties":{"id":"B14","name":"Hawthorne Ct & State Street","address":"619 State Street Madison, WI 53715"},"geometry":{"type":"Point","coordinates":[-89.3962902,43.074747]}},{"type":"Feature","properties":{"id":"B15","name":"N. Lake St. @ University Ave.","address":"381 N. Lake St. Madison, WI 53715"},"geometry":{"type":"Point","coordinates":[-89.39743159999999,43.0729939]}},{"type":"Feature","properties":{"id":"B16","name":"State St. & N. Frances","address":"State St. & N. Francis Madison, WI 53704"},"geometry":{"type":"Point","coordinates":[-89.39583739999999,43.0729345]}},{"type":"Feature","properties":{"id":"B17","name":"University & Bassett","address":"504 University Ave. Madison, WI 53703"},"geometry":{"type":"Point","coordinates":[-89.39425489999999,43.0735635]}},{"type":"Feature","properties":{"id":"B18","name":"W. Gilman @ Peace Park","address":"229 W. Gilman St. Madison, WI 53703"},"geometry":{"type":"Point","coordinates":[-89.392528,43.075134]}},{"type":"Feature","properties":{"id":"B19","name":"W. Washington & Regent St.","address":"677 W. Washington St. Madison, WI 53703"},"geometry":{"type":"Point","coordinates":[-89.39429,43.06737]}},{"type":"Feature","properties":{"id":"B20","name":"Monroe & Harrison","address":"797 Harrison St. Madison, WI 53711"},"geometry":{"type":"Point","coordinates":[-89.41755979999999,43.0646685]}},{"type":"Feature","properties":{"id":"B21","name":"Vilas Park @ Arboretum","address":"850 S. Mills St. Madison, WI 53715"},"geometry":{"type":"Point","coordinates":[-89.4042458,43.0571721]}},{"type":"Feature","properties":{"id":"B22","name":"N. Shore @ Brittingham Park","address":"150 North Shore Drive Madison, WI 53703"},"geometry":{"type":"Point","coordinates":[-89.3890031,43.0653108]}},{"type":"Feature","properties":{"id":"B23","name":"W. Mifflin @ Central Library","address":"126 W. Mifflin Street Madison , WI 53703"},"geometry":{"type":"Point","coordinates":[-89.38739269999999,43.0742754]}},{"type":"Feature","properties":{"id":"B24","name":"Philosopher's Grove","address":"101 W. Mifflin Madison, WI 53703"},"geometry":{"type":"Point","coordinates":[-89.38692209999999,43.0744033]}},{"type":"Feature","properties":{"id":"B25","name":"Ian's Pizza on State","address":"100 North Carroll St. Madison, WI 53703"},"geometry":{"type":"Point","coordinates":[-89.3868051,43.0750085]}},{"type":"Feature","properties":{"id":"B26","name":"Mansion Hill Inn","address":"424 N. Pinckney Street Madison, WI 63703"},"geometry":{"type":"Point","coordinates":[-89.3875599,43.078666]}},{"type":"Feature","properties":{"id":"B27","name":"Wisconsin & E. Mifflin","address":"117 Wisconsin Avenue Madison, WI 53703"},"geometry":{"type":"Point","coordinates":[-89.3852579,43.0755167]}},{"type":"Feature","properties":{"id":"B28","name":"S. Hamilton & S. Carroll St.","address":"101 S. Carroll St. Madison, WI 53703"},"geometry":{"type":"Point","coordinates":[-89.3842123,43.0728883]}},{"type":"Feature","properties":{"id":"B29","name":"MLK & Main St.","address":"104 Martin Luther King Jr. Blvd. Madison, WI 53703"},"geometry":{"type":"Point","coordinates":[-89.3831993,43.073602]}},{"type":"Feature","properties":{"id":"B30","name":"E. Washington & N. Webster","address":"136 E. Washington Madison, WI 53703"},"geometry":{"type":"Point","coordinates":[-89.38244209999999,43.0760418]}},{"type":"Feature","properties":{"id":"B31","name":"W. Wilson & MLK","address":"22 West Wilson Street Madison, WI 53703"},"geometry":{"type":"Point","coordinates":[-89.3817904,43.0723674]}},{"type":"Feature","properties":{"id":"B32","name":"John Nolen @ Law Park","address":"John Nolen Drive Madison, WI 53703"},"geometry":{"type":"Point","coordinates":[-89.3828161,43.0698547]}},{"type":"Feature","properties":{"id":"B33","name":"Williamson St @ Jenifer St.","address":"706 Willamson St. Madison, WI 53703"},"geometry":{"type":"Point","coordinates":[-89.37329129999999,43.0773345]}},{"type":"Feature","properties":{"id":"B34","name":"S. Few & Williamson","address":"387 S. Few Madison, WI 53703"},"geometry":{"type":"Point","coordinates":[-89.364436,43.0833388]}},{"type":"Feature","properties":{"id":"B35","name":"E. Gorham & N. Brearly","address":"988 E. Gorham St. Madison, WI 53703"},"geometry":{"type":"Point","coordinates":[-89.37545999999999,43.08634]}},{"type":"Feature","properties":{"id":"B36","name":"N. Thornton @ Tenney Park","address":"N. Thornton @ Tenney Park Madison, WI 80000"},"geometry":{"type":"Point","coordinates":[-89.36909899999999,43.0925389]}},{"type":"Feature","properties":{"id":"B37","name":"Eastwood & Division","address":"2048 Eastwood Dr. Madison, WI 53704"},"geometry":{"type":"Point","coordinates":[-89.3511406,43.0924618]}},{"type":"Feature","properties":{"id":"B38","name":"Olbrich Gardens","address":"3330 Atwood Avenue Madison, WI 53704"},"geometry":{"type":"Point","coordinates":[-89.335517,43.0927389]}},{"type":"Feature","properties":{"id":"B39","name":"Olbrich Biergarten","address":"3527 Atwood Ave Madison, WI 53714"},"geometry":{"type":"Point","coordinates":[-89.3304009,43.0878713]}},{"type":"Feature","properties":{"id":"B40","name":"Madison College - Truax Campus","address":"1750 Wright St. Madison, WI 53704"},"geometry":{"type":"Point","coordinates":[-89.3307191,43.1213039]}}]}
